{"directed": true, "multigraph": false, "graph": {"node_default": {}, "edge_default": {}, "DateObtained": "19/10/10", "GeoLocation": "USA, Europe", "GeoExtent": "Country+", "Network": "Cogent ", "Provenance": "Primary", "Note": "Contains Aleron", "Source": "http://www.cogentco.com/us/network_map.php", "Version": "1.0", "DateType": "Current", "Type": "COM", "Backbone": 1, "Commercial": 0, "label": "Cogentco", "ToolsetVersion": "0.3.34dev-20120328", "Customer": 1, "IX": 0, "SourceGitVersion": "e278b1b", "DateModifier": "=", "DateMonth": "08", "LastAccess": "3/08/10", "Access": 0, "Layer": "IP", "Creator": "Topology Zoo Toolset", "Developed": 1, "Transit": 1, "NetworkDate": "2010_08", "DateYear": "2010", "LastProcessed": "2011_09_01", "Testbed": 0}, "nodes": [{"Internal": 1, "Latitude": 50.93333, "Country": "Germany", "type": "On-Net and Off-Net Market", "Longitude": 6.95, "label": "Cologne", "id": 161}, {"Internal": 1, "Latitude": 50.0, "Country": "Germany", "type": "On-Net and Off-Net Market", "Longitude": 8.27111, "label": "Mainz-Wiesbaden", "id": 2}, {"Internal": 1, "Latitude": 51.22172, "Country": "Germany", "type": "On-Net and Off-Net Market", "Longitude": 6.77616, "label": "Dusseldorf", "id": 162}, {"Internal": 1, "Latitude": 48.58333, "Country": "France", "type": "On-Net and Off-Net Market with Cogent Data Center(s)", "Longitude": 7.75, "label": "Strasbourg", "id": 133}, {"Internal": 1, "Latitude": 51.45, "Country": "Germany", "type": "On-Net and Off-Net Market", "Longitude": 7.01667, "label": "Essen", "id": 167}, {"Internal": 1, "Latitude": 51.51667, "Country": "Germany", "type": "On-Net and Off-Net Market", "Longitude": 7.45, "label": "Dortmund", "id": 168}, {"Internal": 1, "Latitude": 51.96236, "Country": "Germany", "type": "On-Net and Off-Net Market", "Longitude": 7.62571, "label": "Munster", "id": 169}, {"Internal": 1, "Latitude": 49.25, "Country": "France", "type": "On-Net and Off-Net Market", "Longitude": 4.03333, "label": "Reims", "id": 75}, {"Internal": 1, "Latitude": 49.61167, "Country": "Luxembourg", "type": "On-Net and Off-Net Market", "Longitude": 6.13, "label": "Luxembourg", "id": 76}, {"Internal": 1, "Latitude": 50.11667, "Country": "Germany", "type": "On-Net and Off-Net Market with Cogent Data Center(s)", "Longitude": 8.68333, "label": "Frankfurt", "id": 77}, {"hyperedge": 1, "Internal": 1, "label": "None", "id": 173}, {"Internal": 1, "Latitude": 53.07516, "Country": "Germany", "type": "On-Net and Off-Net Market", "Longitude": 8.80777, "label": "Bremen", "id": 185}], "links": [{"id": "e48", "key": 0, "capacity": 200, "source": 161, "target": 162}, {"id": "e50", "key": 0, "capacity": 200, "source": 2, "target": 76}, {"id": "e49", "key": 0, "capacity": 200, "source": 2, "target": 77}, {"id": "e47", "key": 0, "capacity": 200, "source": 162, "target": 77}, {"id": "e48", "key": 0, "capacity": 200, "source": 162, "target": 161}, {"id": "e46", "key": 0, "capacity": 200, "source": 162, "target": 167}, {"id": "e90", "key": 0, "capacity": 200, "source": 133, "target": 77}, {"id": "e89", "key": 0, "capacity": 200, "source": 133, "target": 173}, {"id": "e46", "key": 0, "capacity": 200, "source": 167, "target": 162}, {"id": "e45", "key": 0, "capacity": 200, "source": 167, "target": 168}, {"id": "e45", "key": 0, "capacity": 200, "source": 168, "target": 167}, {"id": "e43", "key": 0, "capacity": 200, "source": 168, "target": 169}, {"id": "e43", "key": 0, "capacity": 200, "source": 169, "target": 168}, {"id": "e44", "key": 0, "capacity": 200, "source": 169, "target": 185}, {"id": "e94", "key": 0, "capacity": 200, "source": 75, "target": 173}, {"id": "e50", "key": 0, "capacity": 200, "source": 76, "target": 2}, {"id": "e92", "key": 0, "capacity": 200, "source": 76, "target": 173}, {"id": "e49", "key": 0, "capacity": 200, "source": 77, "target": 2}, {"id": "e47", "key": 0, "capacity": 200, "source": 77, "target": 162}, {"id": "e90", "key": 0, "capacity": 200, "source": 77, "target": 133}, {"id": "e94", "key": 0, "capacity": 200, "source": 173, "target": 75}, {"id": "e92", "key": 0, "capacity": 200, "source": 173, "target": 76}, {"id": "e89", "key": 0, "capacity": 200, "source": 173, "target": 133}, {"id": "e44", "key": 0, "capacity": 200, "source": 185, "target": 169}]}