{"directed": true, "multigraph": false, "graph": {"node_default": {}, "edge_default": {}, "DateObtained": "19/10/10", "GeoLocation": "USA, Europe", "GeoExtent": "Country+", "Network": "Cogent ", "Provenance": "Primary", "Note": "Contains Aleron", "Source": "http://www.cogentco.com/us/network_map.php", "Version": "1.0", "DateType": "Current", "Type": "COM", "Backbone": 1, "Commercial": 0, "label": "Cogentco", "ToolsetVersion": "0.3.34dev-20120328", "Customer": 1, "IX": 0, "SourceGitVersion": "e278b1b", "DateModifier": "=", "DateMonth": "08", "LastAccess": "3/08/10", "Access": 0, "Layer": "IP", "Creator": "Topology Zoo Toolset", "Developed": 1, "Transit": 1, "NetworkDate": "2010_08", "DateYear": "2010", "LastProcessed": "2011_09_01", "Testbed": 0}, "nodes": [{"Internal": 1, "Latitude": 49.48833, "Country": "Germany", "type": "On-Net and Off-Net Market", "Longitude": 8.46472, "label": "Mannheim", "id": 3}, {"Internal": 1, "Latitude": 48.78232, "Country": "Germany", "type": "On-Net and Off-Net Market", "Longitude": 9.17702, "label": "Stuttgart", "id": 4}, {"Internal": 1, "Latitude": 49.44778, "Country": "Germany", "type": "On-Net and Off-Net Market", "Longitude": 11.06833, "label": "Nuremberg", "id": 5}, {"Internal": 1, "Latitude": 48.13743, "Country": "Germany", "type": "On-Net and Off-Net Market", "Longitude": 11.57549, "label": "Munich", "id": 6}, {"Internal": 1, "Latitude": 48.20849, "Country": "Austria", "type": "On-Net and Off-Net Market", "Longitude": 16.37208, "label": "Vienna", "id": 7}, {"Internal": 1, "Latitude": 51.05089, "Country": "Germany", "type": "On-Net and Off-Net Market", "Longitude": 13.73832, "label": "Dresden", "id": 131}, {"Internal": 1, "Latitude": 45.46427, "Country": "Italy", "type": "On-Net and Off-Net Market", "Longitude": 9.18951, "label": "Milan", "id": 134}, {"Internal": 1, "Latitude": 47.36667, "Country": "Switzerland", "type": "On-Net and Off-Net Market", "Longitude": 8.55, "label": "Zurich", "id": 135}, {"Internal": 1, "Latitude": 45.81444, "Country": "Croatia", "type": "On-Net and Off-Net Market", "Longitude": 15.97798, "label": "Zagreb", "id": 136}, {"Internal": 1, "Latitude": 44.40632, "Country": "Italy", "type": "On-Net and Off-Net Market", "Longitude": 8.93386, "label": "Genoa", "id": 137}, {"Internal": 1, "Latitude": 45.43861, "Country": "Italy", "type": "On-Net and Off-Net Market", "Longitude": 12.32667, "label": "Padua-Venice", "id": 138}, {"Internal": 1, "Latitude": 46.05108, "Country": "Slovenia", "type": "On-Net and Off-Net Market", "Longitude": 14.50513, "label": "Ljubljana", "id": 139}, {"Internal": 1, "Latitude": 43.76667, "Country": "Italy", "type": "On-Net and Off-Net Market", "Longitude": 11.25, "label": "Florence", "id": 140}, {"Internal": 1, "Latitude": 44.49381, "Country": "Italy", "type": "On-Net and Off-Net Market", "Longitude": 11.33875, "label": "Bologna", "id": 141}, {"Internal": 1, "Latitude": 52.52437, "Country": "Germany", "type": "On-Net and Off-Net Market", "Longitude": 13.41053, "label": "Berlin", "id": 142}, {"Internal": 1, "Latitude": 53.55, "Country": "Germany", "type": "On-Net and Off-Net Market", "Longitude": 10.0, "label": "Hamburg", "id": 143}, {"Internal": 1, "Latitude": 59.91273, "Country": "Norway", "type": "On-Net and Off-Net Market", "Longitude": 10.74609, "label": "Oslo", "id": 40}, {"Internal": 1, "Latitude": 59.33258, "Country": "Sweden", "type": "On-Net and Off-Net Market", "Longitude": 18.0649, "label": "Stockholm", "id": 41}, {"Internal": 1, "Latitude": 55.67594, "Country": "Denmark", "type": "On-Net and Off-Net Market", "Longitude": 12.56553, "label": "Copenhagen", "id": 42}, {"Internal": 1, "Latitude": 55.60587, "Country": "Sweden", "type": "On-Net and Off-Net Market", "Longitude": 13.00073, "label": "Malmo", "id": 43}, {"hyperedge": 1, "Internal": 1, "label": "None", "id": 172}, {"hyperedge": 1, "Internal": 1, "label": "None", "id": 174}, {"Internal": 1, "Latitude": 59.43696, "Country": "Estonia", "type": "On-Net and Off-Net Market", "Longitude": 24.75353, "label": "Tallinn", "id": 182}, {"Internal": 1, "Latitude": 60.16952, "Country": "Finland", "type": "On-Net and Off-Net Market", "Longitude": 24.93545, "label": "Helsinki", "id": 189}, {"Internal": 1, "Latitude": 52.22977, "Country": "Poland", "type": "On-Net and Off-Net Market", "Longitude": 21.01178, "label": "Warsaw", "id": 192}, {"Internal": 1, "Latitude": 50.08333, "Country": "Poland", "type": "On-Net and Off-Net Market", "Longitude": 19.91667, "label": "Krakow", "id": 193}, {"Internal": 1, "Latitude": 49.19522, "Country": "Czech Republic", "type": "On-Net and Off-Net Market", "Longitude": 16.60796, "label": "Brno", "id": 194}, {"Internal": 1, "Latitude": 43.70313, "Country": "France", "type": "On-Net and Off-Net Market with Cogent Data Center(s)", "Longitude": 7.26608, "label": "Nice", "id": 90}, {"Internal": 1, "Latitude": 42.69751, "Country": "Bulgaria", "type": "On-Net and Off-Net Market with Cogent Data Center(s)", "Longitude": 23.32415, "label": "Sophia", "id": 97}, {"Internal": 1, "Latitude": 50.08804, "Country": "Czech Republic", "type": "On-Net and Off-Net Market", "Longitude": 14.42076, "label": "Prague", "id": 98}, {"Internal": 1, "Latitude": 43.46139, "Country": "Italy", "type": "On-Net and Off-Net Market", "Longitude": 11.87691, "label": "Arezzo", "id": 111}, {"Internal": 1, "Latitude": 41.89474, "Country": "Italy", "type": "On-Net and Off-Net Market", "Longitude": 12.4839, "label": "Rome", "id": 112}], "links": [{"id": "e51", "key": 0, "capacity": 200, "source": 3, "target": 4}, {"id": "e51", "key": 0, "capacity": 200, "source": 4, "target": 3}, {"id": "e54", "key": 0, "capacity": 200, "source": 4, "target": 6}, {"id": "e53", "key": 0, "capacity": 200, "source": 4, "target": 135}, {"id": "e11", "key": 0, "capacity": 200, "source": 5, "target": 131}, {"id": "e55", "key": 0, "capacity": 200, "source": 5, "target": 6}, {"id": "e54", "key": 0, "capacity": 200, "source": 6, "target": 4}, {"id": "e55", "key": 0, "capacity": 200, "source": 6, "target": 5}, {"id": "e56", "key": 0, "capacity": 200, "source": 6, "target": 7}, {"id": "e56", "key": 0, "capacity": 200, "source": 7, "target": 6}, {"id": "e58", "key": 0, "capacity": 200, "source": 7, "target": 174}, {"id": "e11", "key": 0, "capacity": 200, "source": 131, "target": 5}, {"id": "e9", "key": 0, "capacity": 200, "source": 131, "target": 98}, {"id": "e10", "key": 0, "capacity": 200, "source": 131, "target": 142}, {"id": "e84", "key": 0, "capacity": 200, "source": 134, "target": 137}, {"id": "e80", "key": 0, "capacity": 200, "source": 134, "target": 138}, {"id": "e86", "key": 0, "capacity": 200, "source": 134, "target": 135}, {"id": "e53", "key": 0, "capacity": 200, "source": 135, "target": 4}, {"id": "e86", "key": 0, "capacity": 200, "source": 135, "target": 134}, {"id": "e83", "key": 0, "capacity": 200, "source": 136, "target": 139}, {"id": "e76", "key": 0, "capacity": 200, "source": 137, "target": 112}, {"id": "e84", "key": 0, "capacity": 200, "source": 137, "target": 134}, {"id": "e85", "key": 0, "capacity": 200, "source": 137, "target": 172}, {"id": "e80", "key": 0, "capacity": 200, "source": 138, "target": 134}, {"id": "e81", "key": 0, "capacity": 200, "source": 138, "target": 174}, {"id": "e79", "key": 0, "capacity": 200, "source": 138, "target": 141}, {"id": "e83", "key": 0, "capacity": 200, "source": 139, "target": 136}, {"id": "e82", "key": 0, "capacity": 200, "source": 139, "target": 174}, {"id": "e77", "key": 0, "capacity": 200, "source": 140, "target": 111}, {"id": "e78", "key": 0, "capacity": 200, "source": 140, "target": 141}, {"id": "e79", "key": 0, "capacity": 200, "source": 141, "target": 138}, {"id": "e78", "key": 0, "capacity": 200, "source": 141, "target": 140}, {"id": "e10", "key": 0, "capacity": 200, "source": 142, "target": 131}, {"id": "e12", "key": 0, "capacity": 200, "source": 142, "target": 143}, {"id": "e14", "key": 1, "capacity": 200, "source": 143, "target": 42}, {"id": "e12", "key": 0, "capacity": 200, "source": 143, "target": 142}, {"id": "e19", "key": 0, "capacity": 200, "source": 40, "target": 41}, {"id": "e17", "key": 0, "capacity": 200, "source": 40, "target": 42}, {"id": "e19", "key": 0, "capacity": 200, "source": 41, "target": 40}, {"id": "e18", "key": 0, "capacity": 200, "source": 41, "target": 43}, {"id": "e1", "key": 0, "capacity": 200, "source": 41, "target": 189}, {"id": "e17", "key": 0, "capacity": 200, "source": 42, "target": 40}, {"id": "e16", "key": 0, "capacity": 200, "source": 42, "target": 43}, {"id": "e14", "key": 1, "capacity": 200, "source": 42, "target": 143}, {"id": "e18", "key": 0, "capacity": 200, "source": 43, "target": 41}, {"id": "e16", "key": 0, "capacity": 200, "source": 43, "target": 42}, {"id": "e111", "key": 0, "capacity": 200, "source": 172, "target": 90}, {"id": "e110", "key": 0, "capacity": 200, "source": 172, "target": 97}, {"id": "e85", "key": 0, "capacity": 200, "source": 172, "target": 137}, {"id": "e58", "key": 0, "capacity": 200, "source": 174, "target": 7}, {"id": "e81", "key": 0, "capacity": 200, "source": 174, "target": 138}, {"id": "e82", "key": 0, "capacity": 200, "source": 174, "target": 139}, {"id": "e0", "key": 0, "capacity": 200, "source": 182, "target": 189}, {"id": "e1", "key": 0, "capacity": 200, "source": 189, "target": 41}, {"id": "e0", "key": 0, "capacity": 200, "source": 189, "target": 182}, {"id": "e5", "key": 0, "capacity": 200, "source": 192, "target": 193}, {"id": "e5", "key": 0, "capacity": 200, "source": 193, "target": 192}, {"id": "e6", "key": 0, "capacity": 200, "source": 193, "target": 194}, {"id": "e8", "key": 0, "capacity": 200, "source": 194, "target": 98}, {"id": "e6", "key": 0, "capacity": 200, "source": 194, "target": 193}, {"id": "e111", "key": 0, "capacity": 200, "source": 90, "target": 172}, {"id": "e110", "key": 0, "capacity": 200, "source": 97, "target": 172}, {"id": "e8", "key": 0, "capacity": 200, "source": 98, "target": 194}, {"id": "e9", "key": 0, "capacity": 200, "source": 98, "target": 131}, {"id": "e75", "key": 0, "capacity": 200, "source": 111, "target": 112}, {"id": "e77", "key": 0, "capacity": 200, "source": 111, "target": 140}, {"id": "e75", "key": 0, "capacity": 200, "source": 112, "target": 111}, {"id": "e76", "key": 0, "capacity": 200, "source": 112, "target": 137}]}